[{"address":"Unnamed Road, Chao Yang Qu, Bei Jing Shi, China, 100621","alt":0.0,"country":"China","firstVisited":1726128111362,"id":36,"lastVisited":1726130269479,"lat":40.0782118,"lon":116.5883917,"memo":"","name":"북경 서두 공원 제2터미널","numberOfVisits":2,"type":"AirPort"},{"address":"CN 北京市 朝阳区 望京新城 A-2108-11, 朝阳区 China, 100102","alt":0.0,"country":"China","firstVisited":1726121933752,"id":35,"lastVisited":1726121933752,"lat":39.9981792,"lon":116.4832401,"memo":"","name":"Puxiang Center A meeting room.","numberOfVisits":1,"type":"Office"},{"address":"2F2M+H48, Chaoyang, Beijing, China, 100102","alt":0.0,"country":"China","firstVisited":1726116866440,"id":34,"lastVisited":1726116866440,"lat":40.0015837,"lon":116.4829575,"memo":"","name":"광동식 식당@중국지사","numberOfVisits":1,"type":"Restaurant"},{"address":"Rong Ke Wang Jing Zhong Xin, 太阳宫 Chao Yang Qu, Bei Jing Shi, China, 100102","alt":0.0,"country":"China","firstVisited":1726116016971,"id":32,"lastVisited":1726116016971,"lat":39.9985726,"lon":116.4839151,"memo":"","name":"Puxiang Center A","numberOfVisits":1,"type":"Street"},{"address":"X8W4+7RR, Haidian District, Beijing, China, 100084","alt":0.0,"country":"China","firstVisited":1726101885213,"id":31,"lastVisited":1726101909208,"lat":39.9958647,"lon":116.3070144,"memo":"business trip","name":"The lake view hotel","numberOfVisits":2,"type":"Hotel"},{"address":"대한민국 서울특별시 동대문구 답십리제2동 17-4","alt":0.0,"country":"대한민국","firstVisited":1725748582169,"id":15,"lastVisited":1726100603082,"lat":37.5674949,"lon":127.0591484,"memo":"","name":"답십리제2동","numberOfVisits":4,"type":"Restaurant"},{"address":"中国北京市海淀区X8W4+7RR 邮政编码: 100084","alt":0.0,"country":"中国","firstVisited":1726096065385,"id":30,"lastVisited":1726099834375,"lat":39.9956871,"lon":116.3070263,"memo":"","name":"Hai Dian Qu","numberOfVisits":3,"type":"Restaurant"},{"address":"105 Chengfu Rd, 蓝旗营 Hai Dian Qu, Bei Jing Shi, 중국 100084","alt":0.0,"country":"중국","firstVisited":1726049058178,"id":23,"lastVisited":1726049058178,"lat":39.9925578,"lon":116.3244286,"memo":"","name":"허이디안구 전치덕 북경오리","numberOfVisits":1,"type":"Restaurant"},{"address":"중국 Bei Jing Shi, Hai Dian Qu, 镜春路 邮政编码: 100084","alt":0.0,"country":"중국","firstVisited":1726024068994,"id":22,"lastVisited":1726024068994,"lat":39.9963781,"lon":116.3069228,"memo":"","name":"The lake hotel cafe","numberOfVisits":1,"type":"Restaurant"},{"address":"중국 베이징 시 하이뎬 구 X7HX+5JM 邮政编码: 100080","alt":0.0,"country":"중국","firstVisited":1725970316001,"id":20,"lastVisited":1725970316001,"lat":39.9786693,"lon":116.2981531,"memo":"","name":"광롱 만찬장","numberOfVisits":1,"type":"Restaurant"},{"address":"중국 베이징 시 하이뎬 구 X7HX+5JM 邮政编码: 100080","alt":0.0,"country":"중국","firstVisited":1725962156386,"id":19,"lastVisited":1725962156386,"lat":39.9779318,"lon":116.2994982,"memo":"","name":"광롱 식당","numberOfVisits":1,"type":"Restaurant"},{"address":"중국 Bei Jing Shi, Hai Dian Qu, 双榆树西里36号南楼二层 邮政编码: 100080","alt":0.0,"country":"중국","firstVisited":1725951217442,"id":18,"lastVisited":1725951217442,"lat":39.9811339,"lon":116.2994792,"memo":"","name":"Guangrong office","numberOfVisits":1,"type":"Restaurant"},{"address":"중국 Bei Jing Shi, Hai Dian Qu, 圆明园中钢国际广场1层 邮政编码: 100084","alt":0.0,"country":"중국","firstVisited":1725929948294,"id":16,"lastVisited":1725929948294,"lat":39.99833,"lon":116.3059326,"memo":"","name":"Shop near The Lake Hotel","numberOfVisits":1,"type":"Shop"},{"address":"Bei Jing Shou Du Guo Ji Ji Chang San Hao Hang Zhan Lou, Shun Yi Qu, Bei Jing Shi, 중국 100621","alt":0.0,"country":"중국","firstVisited":1725882989319,"id":2,"lastVisited":1725883433036,"lat":40.10099,"lon":116.5952337,"memo":"","name":"Bei Jing Shou Du Airport","numberOfVisits":3,"type":"AirPort"},{"address":"About to land","alt":0.0,"country":"China","firstVisited":1725881948825,"id":3,"lastVisited":1725881948825,"lat":39.6463918,"lon":117.0157291,"memo":"","name":"Airplane to Beijing","numberOfVisits":1,"type":"Restaurant"},{"address":"대한민국 인천광역시 인천공항T2(1)번출입구(3층)","alt":0.0,"country":"대한민국","firstVisited":1725869440201,"id":4,"lastVisited":1725869440201,"lat":37.4664681,"lon":126.4336797,"memo":"","name":"인천공항T2(1)번출입구(3층) KAL Rounge","numberOfVisits":1,"type":"Restaurant"},{"address":"대한민국 인천광역시 중구 제2터미널대로 446 제2여객터미널 1층 일반지역 A입국장 부근 인천국제공항","alt":0.0,"country":"대한민국","firstVisited":1725866126950,"id":5,"lastVisited":1725866126950,"lat":37.467891,"lon":126.4335114,"memo":"","name":"인천공항 제2터미널","numberOfVisits":1,"type":"Restaurant"},{"address":"대한민국 서울특별시 구로구 구로제3동","alt":0.0,"country":"대한민국","firstVisited":1725856228674,"id":6,"lastVisited":1725856228674,"lat":37.4856171,"lon":126.8972085,"memo":"","name":"ALTIBASE","numberOfVisits":1,"type":"Other"},{"address":"대한민국 서울특별시 구로구 구로동 222-32","alt":0.0,"country":"대한민국","firstVisited":1725846341098,"id":7,"lastVisited":1725846341098,"lat":37.4825826,"lon":126.8956355,"memo":"","name":"우리은행 구로디지털지점","numberOfVisits":1,"type":"Restaurant"},{"address":"대한민국 서울특별시 동대문구 전농제2동 산32-19","alt":0.0,"country":"대한민국","firstVisited":1725787961484,"id":8,"lastVisited":1725787961484,"lat":37.5785875,"lon":127.0628324,"memo":"","name":"배봉산","numberOfVisits":1,"type":"Park"},{"address":"대한민국 서울특별시 성동구 행당동 168-43","alt":0.0,"country":"대한민국","firstVisited":1725780940078,"id":9,"lastVisited":1725780940078,"lat":37.5606974,"lon":127.0379492,"memo":"","name":"매란방","numberOfVisits":1,"type":"Restaurant"},{"address":"답십리파크자이","alt":0.0,"country":"Korea","firstVisited":1725712800651,"id":10,"lastVisited":1725774697152,"lat":37.5675315,"lon":127.0591938,"memo":"","name":"집2","numberOfVisits":15,"type":"Park"},{"address":"대한민국 서울특별시 동대문구 휘경동 49-265","alt":0.0,"country":"대한민국","firstVisited":1725756107958,"id":11,"lastVisited":1725768545353,"lat":37.5676077,"lon":127.059191,"memo":"","name":"장안 벚꽃길","numberOfVisits":4,"type":"Other"},{"address":"대한민국 서울특별시 동대문구 답십리제2동 17-4","alt":0.0,"country":"대한민국","firstVisited":1725767467874,"id":12,"lastVisited":1725767467874,"lat":37.567607,"lon":127.0592152,"memo":"","name":"Home","numberOfVisits":1,"type":"Other"},{"address":"대한민국 서울특별시 동대문구 휘경동 49-265","alt":0.0,"country":"대한민국","firstVisited":1725756107958,"id":13,"lastVisited":1725767339431,"lat":37.5676066,"lon":127.0591721,"memo":"","name":"Jangan cherry","numberOfVisits":3,"type":"Other"},{"address":"대한민국 서울특별시 동대문구 답십리제2동 17-4","alt":0.0,"country":"대한민국","firstVisited":1725749262805,"id":14,"lastVisited":1725751356085,"lat":37.5676069,"lon":127.0592017,"memo":"","name":"17-4","numberOfVisits":2,"type":"Other"}]